[{"station_name": "10 Ave & W 28 St", "station_lat": "40.75066386", "station_id": "489", "station_lon": "-74.00176802"}, {"station_name": "Front St & Gold St", "station_lat": "40.70224", "station_id": "418", "station_lon": "-73.982578"}, {"station_name": "Madison St & Clinton St", "station_lat": "40.71269042", "station_id": "340", "station_lon": "-73.98776323"}, {"station_name": "W 59 St & 10 Ave", "station_lat": "40.770513", "station_id": "422", "station_lon": "-73.988038"}, {"station_name": "Atlantic Ave & Furman St", "station_lat": "40.69165183", "station_id": "398", "station_lon": "-73.9999786"}, {"station_name": "Nassau St & Navy St", "station_lat": "40.69839895", "station_id": "144", "station_lon": "-73.98068914"}, {"station_name": "W 45 St & 8 Ave", "station_lat": "40.75929124", "station_id": "2021", "station_lon": "-73.98859651"}, {"station_name": "S 4 St & Wythe Ave", "station_lat": "40.71285887", "station_id": "460", "station_lon": "-73.96590294"}, {"station_name": "Washington St & Gansevoort St", "station_lat": "40.739323", "station_id": "405", "station_lon": "-74.008119"}, {"station_name": "W 37 St & 10 Ave", "station_lat": "40.75660359", "station_id": "448", "station_lon": "-73.9979009"}, {"station_name": "W 43 St & 10 Ave", "station_lat": "40.76009437", "station_id": "515", "station_lon": "-73.99461843"}, {"station_name": "W 41 St & 8 Ave", "station_lat": "40.75640548", "station_id": "477", "station_lon": "-73.9900262"}, {"station_name": "E 56 St & Madison Ave", "station_lat": "40.761628", "station_id": "137", "station_lon": "-73.972924"}, {"station_name": "South End Ave & Liberty St", "station_lat": "40.711512", "station_id": "3002", "station_lon": "-74.015756"}, {"station_name": "Greenwich Ave & 8 Ave", "station_lat": "40.7390169121", "station_id": "284", "station_lon": "-74.0026376103"}, {"station_name": "Grand St & Greene St", "station_lat": "40.72165481", "station_id": "2010", "station_lon": "-74.00234737"}, {"station_name": "W 4 St & 7 Ave S", "station_lat": "40.73401143", "station_id": "380", "station_lon": "-74.00293877"}, {"station_name": "Mott St & Prince St", "station_lat": "40.72317958", "station_id": "251", "station_lon": "-73.99480012"}, {"station_name": "Jay St & Tech Pl", "station_lat": "40.695065", "station_id": "392", "station_lon": "-73.987167"}, {"station_name": "E 39 St & 2 Ave", "station_lat": "40.74780373", "station_id": "518", "station_lon": "-73.9734419"}, {"station_name": "St Marks Pl & 1 Ave", "station_lat": "40.72779126", "station_id": "438", "station_lon": "-73.98564945"}, {"station_name": "West St & Chambers St", "station_lat": "40.71754834", "station_id": "426", "station_lon": "-74.01322069"}, {"station_name": "Atlantic Ave & Fort Greene Pl", "station_lat": "40.68382604", "station_id": "83", "station_lon": "-73.97632328"}, {"station_name": "Rivington St & Chrystie St", "station_lat": "40.72110063", "station_id": "473", "station_lon": "-73.9919254"}, {"station_name": "E 55 St & 2 Ave", "station_lat": "40.75797322", "station_id": "385", "station_lon": "-73.96603308"}, {"station_name": "9 Ave & W 45 St", "station_lat": "40.76019252", "station_id": "479", "station_lon": "-73.9912551"}, {"station_name": "MacDougal St & Washington Sq", "station_lat": "40.73226398", "station_id": "252", "station_lon": "-73.99852205"}, {"station_name": "E 32 St & Park Ave", "station_lat": "40.7457121", "station_id": "472", "station_lon": "-73.98194829"}, {"station_name": "E 13 St & Avenue A", "station_lat": "40.72955361", "station_id": "433", "station_lon": "-73.98057249"}, {"station_name": "Norfolk St & Broome St", "station_lat": "40.7172274", "station_id": "311", "station_lon": "-73.98802084"}, {"station_name": "Broadway & W 58 St", "station_lat": "40.76695317", "station_id": "457", "station_lon": "-73.98169333"}, {"station_name": "FDR Drive & E 35 St", "station_lat": "40.744219", "station_id": "501", "station_lon": "-73.97121214"}, {"station_name": "State St & Smith St", "station_lat": "40.68926942", "station_id": "310", "station_lon": "-73.98912867"}, {"station_name": "Murray St & West St", "station_lat": "40.7149787", "station_id": "309", "station_lon": "-74.013012"}, {"station_name": "Stanton St & Mangin St", "station_lat": "40.71782143", "station_id": "341", "station_lon": "-73.97628939"}, {"station_name": "W 33 St & 7 Ave", "station_lat": "40.75019995", "station_id": "492", "station_lon": "-73.99093085"}, {"station_name": "Hancock St & Bedford Ave", "station_lat": "40.68216564", "station_id": "436", "station_lon": "-73.95399026"}, {"station_name": "DeKalb Ave & Vanderbilt Ave", "station_lat": "40.68940747", "station_id": "258", "station_lon": "-73.96885458"}, {"station_name": "South St & Gouverneur Ln", "station_lat": "40.70355377", "station_id": "315", "station_lon": "-74.00670227"}, {"station_name": "Laight St & Hudson St", "station_lat": "40.72185379", "station_id": "248", "station_lon": "-74.00771779"}, {"station_name": "Forsyth St & Canal St", "station_lat": "40.7158155", "station_id": "412", "station_lon": "-73.99422366"}, {"station_name": "Pike St & E Broadway", "station_lat": "40.71406667", "station_id": "295", "station_lon": "-73.99293911"}, {"station_name": "Vesey Pl & River Terrace", "station_lat": "40.7153379", "station_id": "327", "station_lon": "-74.01658354"}, {"station_name": "W 49 St & 5 Ave", "station_lat": "40.75795248", "station_id": "538", "station_lon": "-73.97787642"}, {"station_name": "E 15 St & 3 Ave", "station_lat": "40.734232", "station_id": "297", "station_lon": "-73.986923"}, {"station_name": "Wythe Ave & Metropolitan Ave", "station_lat": "40.716887", "station_id": "2002", "station_lon": "-73.963198"}, {"station_name": "Broadway & Berry St", "station_lat": "40.71044554", "station_id": "389", "station_lon": "-73.96525063"}, {"station_name": "Rivington St & Ridge St", "station_lat": "40.71850211", "station_id": "349", "station_lon": "-73.98329859"}, {"station_name": "W 49 St & 8 Ave", "station_lat": "40.76227205", "station_id": "450", "station_lon": "-73.98788205"}, {"station_name": "W 24 St & 7 Ave", "station_lat": "40.74487634", "station_id": "446", "station_lon": "-73.99529885"}, {"station_name": "Washington Ave & Park Ave", "station_lat": "40.69610226", "station_id": "313", "station_lon": "-73.96751037"}, {"station_name": "E 40 St & 5 Ave", "station_lat": "40.752062307", "station_id": "153", "station_lon": "-73.9816324043"}, {"station_name": "E 59 St & Sutton Pl", "station_lat": "40.75849116", "station_id": "2022", "station_lon": "-73.95920622"}, {"station_name": "Allen St & Rivington St", "station_lat": "40.72019576", "station_id": "401", "station_lon": "-73.98997825"}, {"station_name": "State St", "station_lat": "40.70251526", "station_id": "427", "station_lon": "-74.01427023"}, {"station_name": "11 Ave & W 27 St", "station_lat": "40.751396", "station_id": "458", "station_lon": "-74.005226"}, {"station_name": "W 52 St & 11 Ave", "station_lat": "40.76727216", "station_id": "72", "station_lon": "-73.99392888"}, {"station_name": "E 33 St & 1 Ave", "station_lat": "40.74315566", "station_id": "527", "station_lon": "-73.97434726"}, {"station_name": "Cherry St", "station_lat": "40.71219906", "station_id": "332", "station_lon": "-73.97948148"}, {"station_name": "E 17 St & Broadway", "station_lat": "40.73704984", "station_id": "497", "station_lon": "-73.99009296"}, {"station_name": "Washington Ave & Greene Ave", "station_lat": "40.68650065", "station_id": "275", "station_lon": "-73.96563307"}, {"station_name": "Washington Pl & Broadway", "station_lat": "40.72903917", "station_id": "335", "station_lon": "-73.99404649"}, {"station_name": "9 Ave & W 18 St", "station_lat": "40.74317449", "station_id": "434", "station_lon": "-74.00366443"}, {"station_name": "E 2 St & 2 Ave", "station_lat": "40.72502876", "station_id": "403", "station_lon": "-73.99069656"}, {"station_name": "Willoughby St & Fleet St", "station_lat": "40.69196566", "station_id": "239", "station_lon": "-73.9813018"}, {"station_name": "Clinton Ave & Myrtle Ave", "station_lat": "40.693261", "station_id": "366", "station_lon": "-73.968896"}, {"station_name": "S Portland Ave & Hanson Pl", "station_lat": "40.68539567", "station_id": "353", "station_lon": "-73.97431458"}, {"station_name": "Fulton St & Clermont Ave", "station_lat": "40.68415748", "station_id": "397", "station_lon": "-73.96922273"}, {"station_name": "11 Ave & W 41 St", "station_lat": "40.76030096", "station_id": "478", "station_lon": "-73.99884222"}, {"station_name": "Greenwich St & N Moore St", "station_lat": "40.72043411", "station_id": "329", "station_lon": "-74.01020609"}, {"station_name": "Forsyth St & Broome St", "station_lat": "40.71893904", "station_id": "531", "station_lon": "-73.99266288"}, {"station_name": "Greenwich St & Warren St", "station_lat": "40.71542197", "station_id": "147", "station_lon": "-74.01121978"}, {"station_name": "2 Ave & E 31 St", "station_lat": "40.74290902", "station_id": "528", "station_lon": "-73.97706058"}, {"station_name": "Perry St & Bleecker St", "station_lat": "40.73535398", "station_id": "247", "station_lon": "-74.00483091"}, {"station_name": "E 5 St & Avenue C", "station_lat": "40.72299208", "station_id": "393", "station_lon": "-73.97995466"}, {"station_name": "Bank St & Hudson St", "station_lat": "40.73652889", "station_id": "346", "station_lon": "-74.00618026"}, {"station_name": "Ashland Pl & Hanson Pl", "station_lat": "40.68528172", "station_id": "271", "station_lon": "-73.97805813"}, {"station_name": "Grand St & Havemeyer St", "station_lat": "40.71286844", "station_id": "471", "station_lon": "-73.95698119"}, {"station_name": "1 Ave & E 44 St", "station_lat": "40.75001986", "station_id": "455", "station_lon": "-73.96905301"}, {"station_name": "Broadway & W 41 St", "station_lat": "40.75513557", "station_id": "465", "station_lon": "-73.98658032"}, {"station_name": "E 16 St & 5 Ave", "station_lat": "40.73726186", "station_id": "496", "station_lon": "-73.99238967"}, {"station_name": "5 Ave & E 29 St", "station_lat": "40.7451677", "station_id": "474", "station_lon": "-73.98683077"}, {"station_name": "E 37 St & Lexington Ave", "station_lat": "40.748238", "station_id": "160", "station_lon": "-73.978311"}, {"station_name": "Broad St & Bridge St", "station_lat": "40.70365182", "station_id": "260", "station_lon": "-74.01167797"}, {"station_name": "E 25 St & 2 Ave", "station_lat": "40.73912601", "station_id": "507", "station_lon": "-73.97973776"}, {"station_name": "Bayard St & Baxter St", "station_lat": "40.71602118", "station_id": "355", "station_lon": "-73.99974372"}, {"station_name": "Catherine St & Monroe St", "station_lat": "40.71117444", "station_id": "2009", "station_lon": "-73.99682619"}, {"station_name": "Carmine St & 6 Ave", "station_lat": "40.73038599", "station_id": "368", "station_lon": "-74.00214988"}, {"station_name": "Broadway & W 39 St", "station_lat": "40.75299641", "station_id": "533", "station_lon": "-73.98721619"}, {"station_name": "Central Park S & 6 Ave", "station_lat": "40.76590936", "station_id": "2006", "station_lon": "-73.97634151"}, {"station_name": "E 58 St & 3 Ave", "station_lat": "40.76095756", "station_id": "305", "station_lon": "-73.96724467"}, {"station_name": "Lexington Ave & E 26 St", "station_lat": "40.74147286", "station_id": "540", "station_lon": "-73.98320928"}, {"station_name": "W Houston St & Hudson St", "station_lat": "40.72873888", "station_id": "347", "station_lon": "-74.00748842"}, {"station_name": "E 25 St & 1 Ave", "station_lat": "40.7381765", "station_id": "174", "station_lon": "-73.97738662"}, {"station_name": "Duffield St & Willoughby St", "station_lat": "40.69221589", "station_id": "390", "station_lon": "-73.9842844"}, {"station_name": "1 Ave & E 30 St", "station_lat": "40.74144387", "station_id": "536", "station_lon": "-73.97536082"}, {"station_name": "Reade St & Broadway", "station_lat": "40.71450451", "station_id": "330", "station_lon": "-74.00562789"}, {"station_name": "LaGuardia Pl & W 3 St", "station_lat": "40.72917025", "station_id": "161", "station_lon": "-73.99810231"}, {"station_name": "Broadway & Battery Pl", "station_lat": "40.70463334", "station_id": "304", "station_lon": "-74.01361706"}, {"station_name": "E 53 St & Lexington Ave", "station_lat": "40.75828065", "station_id": "367", "station_lon": "-73.97069431"}, {"station_name": "E 10 St & Avenue A", "station_lat": "40.72740794", "station_id": "445", "station_lon": "-73.98142006"}, {"station_name": "Broadway & W 29 St", "station_lat": "40.7462009", "station_id": "486", "station_lon": "-73.98855723"}, {"station_name": "E 45 St & 3 Ave", "station_lat": "40.75255434", "station_id": "440", "station_lon": "-73.97282625"}, {"station_name": "E 11 St & 2 Ave", "station_lat": "40.73047309", "station_id": "237", "station_lon": "-73.98672378"}, {"station_name": "Centre St & Chambers St", "station_lat": "40.71273266", "station_id": "387", "station_lon": "-74.0046073"}, {"station_name": "Elizabeth St & Hester St", "station_lat": "40.71729", "station_id": "263", "station_lon": "-73.996375"}, {"station_name": "Broadway & E 14 St", "station_lat": "40.73454567", "station_id": "285", "station_lon": "-73.99074142"}, {"station_name": "E 43 St & Vanderbilt Ave", "station_lat": "40.75320159", "station_id": "318", "station_lon": "-73.9779874"}, {"station_name": "E 11 St & 1 Ave", "station_lat": "40.72953837", "station_id": "326", "station_lon": "-73.98426726"}, {"station_name": "Old Slip & Front St", "station_lat": "40.7037992", "station_id": "337", "station_lon": "-74.00838676"}, {"station_name": "Madison St & Montgomery St", "station_lat": "40.713126", "station_id": "291", "station_lon": "-73.984844"}, {"station_name": "Adelphi St & Myrtle Ave", "station_lat": "40.69308257", "station_id": "270", "station_lon": "-73.97178913"}, {"station_name": "Broadway & W 36 St", "station_lat": "40.75097711", "station_id": "267", "station_lon": "-73.98765428"}, {"station_name": "E 52 St & 2 Ave", "station_lat": "40.756014", "station_id": "441", "station_lon": "-73.967416"}, {"station_name": "Pike St & Monroe St", "station_lat": "40.71173107", "station_id": "331", "station_lon": "-73.99193043"}, {"station_name": "E 10 St & 5 Ave", "station_lat": "40.73331967", "station_id": "280", "station_lon": "-73.99510132"}, {"station_name": "8 Ave & W 33 St", "station_lat": "40.751551", "station_id": "490", "station_lon": "-73.993934"}, {"station_name": "E 20 St & 2 Ave", "station_lat": "40.73587678", "station_id": "461", "station_lon": "-73.98205027"}, {"station_name": "Columbia St & Rivington St", "station_lat": "40.71739973", "station_id": "342", "station_lon": "-73.98016555"}, {"station_name": "E 51 St & 1 Ave", "station_lat": "40.75455731", "station_id": "454", "station_lon": "-73.96592976"}, {"station_name": "E 2 St & Avenue C", "station_lat": "40.7208736", "station_id": "150", "station_lon": "-73.98085795"}, {"station_name": "Avenue D & E 3 St", "station_lat": "40.72082834", "station_id": "302", "station_lon": "-73.97793172"}, {"station_name": "William St & Pine St", "station_lat": "40.70717936", "station_id": "360", "station_lon": "-74.00887308"}, {"station_name": "12 Ave & W 40 St", "station_lat": "40.76087502", "station_id": "514", "station_lon": "-74.00277668"}, {"station_name": "Henry St & Atlantic Ave", "station_lat": "40.69089272", "station_id": "157", "station_lon": "-73.99612349"}, {"station_name": "DeKalb Ave & S Portland Ave", "station_lat": "40.68981035", "station_id": "241", "station_lon": "-73.97493121"}, {"station_name": "E 48 St & 3 Ave", "station_lat": "40.7546011026", "station_id": "228", "station_lon": "-73.971878855"}, {"station_name": "Church St & Leonard St", "station_lat": "40.71743998", "station_id": "320", "station_lon": "-74.00583475"}, {"station_name": "W 56 St & 10 Ave", "station_lat": "40.768254", "station_id": "513", "station_lon": "-73.988639"}, {"station_name": "E 20 St & Park Ave", "station_lat": "40.73827428", "station_id": "503", "station_lon": "-73.98751968"}, {"station_name": "Allen St & Hester St", "station_lat": "40.71605866", "station_id": "361", "station_lon": "-73.99190759"}, {"station_name": "E 4 St & 2 Ave", "station_lat": "40.7262807", "station_id": "439", "station_lon": "-73.98978041"}, {"station_name": "Bank St & Washington St", "station_lat": "40.7361967", "station_id": "238", "station_lon": "-74.00859207"}, {"station_name": "W 54 St & 9 Ave", "station_lat": "40.76584941", "station_id": "423", "station_lon": "-73.98690506"}, {"station_name": "Willoughby Ave & Walworth St", "station_lat": "40.69331716", "station_id": "373", "station_lon": "-73.95381995"}, {"station_name": "E 2 St & Avenue B", "station_lat": "40.72217444", "station_id": "301", "station_lon": "-73.98368779"}, {"station_name": "Avenue D & E 12 St", "station_lat": "40.72580614", "station_id": "339", "station_lon": "-73.97422494"}, {"station_name": "W 37 St & 5 Ave", "station_lat": "40.75038009", "station_id": "485", "station_lon": "-73.98338988"}, {"station_name": "Monroe St & Classon Ave", "station_lat": "40.6845683", "station_id": "289", "station_lon": "-73.95881081"}, {"station_name": "W 13 St & 7 Ave", "station_lat": "40.73781509", "station_id": "223", "station_lon": "-73.99994661"}, {"station_name": "Pitt St & Stanton St", "station_lat": "40.71926081", "station_id": "400", "station_lon": "-73.98178024"}, {"station_name": "Franklin St & W Broadway", "station_lat": "40.71911552", "station_id": "79", "station_lon": "-74.00666661"}, {"station_name": "Broadway & E 22 St", "station_lat": "40.7403432", "station_id": "402", "station_lon": "-73.98955109"}, {"station_name": "Maiden Ln & Pearl St", "station_lat": "40.70706456", "station_id": "264", "station_lon": "-74.00731853"}, {"station_name": "Henry St & Grand St", "station_lat": "40.714215", "station_id": "502", "station_lon": "-73.981346"}, {"station_name": "W 27 St & 7 Ave", "station_lat": "40.746647", "station_id": "442", "station_lon": "-73.993915"}, {"station_name": "Duane St & Greenwich St", "station_lat": "40.71748752", "station_id": "276", "station_lon": "-74.0104554"}, {"station_name": "W 22 St & 10 Ave", "station_lat": "40.74691959", "station_id": "462", "station_lon": "-74.00451887"}, {"station_name": "E 9 St & Avenue C", "station_lat": "40.72521311", "station_id": "394", "station_lon": "-73.97768752"}, {"station_name": "E 27 St & 1 Ave", "station_lat": "40.739445", "station_id": "2012", "station_lon": "-73.976806"}, {"station_name": "Clinton St & Tillary St", "station_lat": "40.696192", "station_id": "322", "station_lon": "-73.991218"}, {"station_name": "W 26 St & 10 Ave", "station_lat": "40.749717753", "station_id": "388", "station_lon": "-74.002950346"}, {"station_name": "W 42 St & 8 Ave", "station_lat": "40.7575699", "station_id": "529", "station_lon": "-73.99098507"}, {"station_name": "Lawrence St & Willoughby St", "station_lat": "40.69236178", "station_id": "323", "station_lon": "-73.98631746"}, {"station_name": "Broadway & W 49 St", "station_lat": "40.76064679", "station_id": "173", "station_lon": "-73.98442659"}, {"station_name": "Lefferts Pl & Franklin Ave", "station_lat": "40.680342423", "station_id": "396", "station_lon": "-73.9557689392"}, {"station_name": "Emerson Pl & Myrtle Ave", "station_lat": "40.69363137", "station_id": "354", "station_lon": "-73.96223558"}, {"station_name": "Lexington Ave & E 24 St", "station_lat": "40.74025878", "station_id": "537", "station_lon": "-73.98409214"}, {"station_name": "Carlton Ave & Park Ave", "station_lat": "40.69580705", "station_id": "419", "station_lon": "-73.97355569"}, {"station_name": "W 51 St & 6 Ave", "station_lat": "40.7606597", "station_id": "510", "station_lon": "-73.98042047"}, {"station_name": "W 45 St & 6 Ave", "station_lat": "40.7568001", "station_id": "493", "station_lon": "-73.98291153"}, {"station_name": "Barrow St & Hudson St", "station_lat": "40.73172428", "station_id": "127", "station_lon": "-74.00674436"}, {"station_name": "W 14 St & The High Line", "station_lat": "40.74195138", "station_id": "225", "station_lon": "-74.00803013"}, {"station_name": "S 3 St & Bedford Ave", "station_lat": "40.71260486", "station_id": "481", "station_lon": "-73.96264403"}, {"station_name": "Dean St & 4 Ave", "station_lat": "40.68312489", "station_id": "467", "station_lon": "-73.97895137"}, {"station_name": "W 26 St & 8 Ave", "station_lat": "40.74734825", "station_id": "494", "station_lon": "-73.99723551"}, {"station_name": "Montague St & Clinton St", "station_lat": "40.69424674", "station_id": "314", "station_lon": "-73.99215922"}, {"station_name": "9 Ave & W 22 St", "station_lat": "40.7454973", "station_id": "509", "station_lon": "-74.00197139"}, {"station_name": "Front St & Washington St", "station_lat": "40.70255088", "station_id": "2000", "station_lon": "-73.98940236"}, {"station_name": "Clermont Ave & Park Ave", "station_lat": "40.69573398", "station_id": "421", "station_lon": "-73.97129668"}, {"station_name": "Pershing Square N", "station_lat": "40.75188406", "station_id": "519", "station_lon": "-73.97770164"}, {"station_name": "Allen St & E Houston St", "station_lat": "40.722055", "station_id": "312", "station_lon": "-73.989111"}, {"station_name": "Clinton Ave & Flushing Ave", "station_lat": "40.69794", "station_id": "343", "station_lon": "-73.96986848"}, {"station_name": "Clermont Ave & Lafayette Ave", "station_lat": "40.68764484", "station_id": "420", "station_lon": "-73.96968902"}, {"station_name": "8 Ave & W 31 St", "station_lat": "40.75044999", "station_id": "521", "station_lon": "-73.99481051"}, {"station_name": "1 Ave & E 15 St", "station_lat": "40.73221853", "station_id": "504", "station_lon": "-73.98165557"}, {"station_name": "6 Ave & Canal St", "station_lat": "40.72243797", "station_id": "377", "station_lon": "-74.00566443"}, {"station_name": "Broadway & W 51 St", "station_lat": "40.76228826", "station_id": "500", "station_lon": "-73.98336183"}, {"station_name": "Cumberland St & Lafayette Ave", "station_lat": "40.68753406", "station_id": "416", "station_lon": "-73.97265183"}, {"station_name": "Warren St & Church St", "station_lat": "40.71473993", "station_id": "152", "station_lon": "-74.00910627"}, {"station_name": "Bond St & Schermerhorn St", "station_lat": "40.68807003", "station_id": "395", "station_lon": "-73.98410637"}, {"station_name": "W 20 St & 11 Ave", "station_lat": "40.746745", "station_id": "459", "station_lon": "-74.007756"}, {"station_name": "John St & William St", "station_lat": "40.70862144", "station_id": "376", "station_lon": "-74.00722156"}, {"station_name": "South St & Whitehall St", "station_lat": "40.70122128", "station_id": "259", "station_lon": "-74.01234218"}, {"station_name": "Christopher St & Greenwich St", "station_lat": "40.73291553", "station_id": "358", "station_lon": "-74.00711384"}, {"station_name": "MacDougal St & Prince St", "station_lat": "40.72710258", "station_id": "128", "station_lon": "-74.00297088"}, {"station_name": "Henry St & Poplar St", "station_lat": "40.700469", "station_id": "407", "station_lon": "-73.991454"}, {"station_name": "W 31 St & 7 Ave", "station_lat": "40.749156", "station_id": "379", "station_lon": "-73.9916"}, {"station_name": "E 14 St & Avenue B", "station_lat": "40.72938685", "station_id": "511", "station_lon": "-73.97772429"}, {"station_name": "E 16 St & Irving Pl", "station_lat": "40.73524276", "station_id": "475", "station_lon": "-73.98758561"}, {"station_name": "Johnson St & Gold St", "station_lat": "40.69474881", "station_id": "261", "station_lon": "-73.98362464"}, {"station_name": "Washington Square E", "station_lat": "40.73049393", "station_id": "294", "station_lon": "-73.9957214"}, {"station_name": "E 7 St & Avenue A", "station_lat": "40.72621788", "station_id": "432", "station_lon": "-73.98379855"}, {"station_name": "Division St & Bowery", "station_lat": "40.71413089", "station_id": "296", "station_lon": "-73.9970468"}, {"station_name": "Avenue D & E 8 St", "station_lat": "40.72368361", "station_id": "266", "station_lon": "-73.97574813"}, {"station_name": "Old Fulton St", "station_lat": "40.70277159", "station_id": "217", "station_lon": "-73.99383605"}, {"station_name": "E 30 St & Park Ave S", "station_lat": "40.74444921", "station_id": "546", "station_lon": "-73.98303529"}, {"station_name": "Sands St & Gold St", "station_lat": "40.69986937", "station_id": "279", "station_lon": "-73.98271933"}, {"station_name": "West Thames St", "station_lat": "40.70834698", "station_id": "363", "station_lon": "-74.01713445"}, {"station_name": "W 52 St & 5 Ave", "station_lat": "40.75992262", "station_id": "520", "station_lon": "-73.97648516"}, {"station_name": "Bedford Ave & S 9th St", "station_lat": "40.70853074", "station_id": "443", "station_lon": "-73.96408963"}, {"station_name": "Suffolk St & Stanton St", "station_lat": "40.72066442", "station_id": "410", "station_lon": "-73.98517977"}, {"station_name": "E 6 St & Avenue B", "station_lat": "40.72453734", "station_id": "317", "station_lon": "-73.98185424"}, {"station_name": "S 5 Pl & S 4 St", "station_lat": "40.710451", "station_id": "532", "station_lon": "-73.960876"}, {"station_name": "Water - Whitehall Plaza", "station_lat": "40.70255065", "station_id": "534", "station_lon": "-74.0127234"}, {"station_name": "3 Ave & Schermerhorn St", "station_lat": "40.68683208", "station_id": "298", "station_lon": "-73.9796772"}, {"station_name": "E 55 St & Lexington Ave", "station_lat": "40.75968085", "station_id": "2023", "station_lon": "-73.97031366"}, {"station_name": "W 15 St & 7 Ave", "station_lat": "40.73935542", "station_id": "482", "station_lon": "-73.99931783"}, {"station_name": "W 38 St & 8 Ave", "station_lat": "40.75466591", "station_id": "523", "station_lon": "-73.99138152"}, {"station_name": "Centre St & Worth St", "station_lat": "40.71494807", "station_id": "386", "station_lon": "-74.00234482"}, {"station_name": "Metropolitan Ave & Bedford Ave", "station_lat": "40.71534825", "station_id": "539", "station_lon": "-73.96024116"}, {"station_name": "7 Ave & Farragut St", "station_lat": "40.69892054", "station_id": "2001", "station_lon": "-73.97332996"}, {"station_name": "Grand Army Plaza & Central Park S", "station_lat": "40.7643971", "station_id": "281", "station_lon": "-73.97371465"}, {"station_name": "W 52 St & 9 Ave", "station_lat": "40.76461837", "station_id": "449", "station_lon": "-73.98789473"}, {"station_name": "Howard St & Centre St", "station_lat": "40.71910537", "station_id": "268", "station_lon": "-73.99973337"}, {"station_name": "Front St & Maiden Ln", "station_lat": "40.70530954", "station_id": "351", "station_lon": "-74.00612572"}, {"station_name": "Broadway & W 60 St", "station_lat": "40.76915505", "station_id": "499", "station_lon": "-73.98191841"}, {"station_name": "Stanton St & Chrystie St", "station_lat": "40.72229346", "station_id": "265", "station_lon": "-73.99147535"}, {"station_name": "Cliff St & Fulton St", "station_lat": "40.70823502", "station_id": "306", "station_lon": "-74.00530063"}, {"station_name": "E 47 St & Park Ave", "station_lat": "40.75510267", "station_id": "359", "station_lon": "-73.97498696"}, {"station_name": "2 Ave & E 58 St", "station_lat": "40.76020258", "station_id": "290", "station_lon": "-73.96478473"}, {"station_name": "W 13 St & 5 Ave", "station_lat": "40.73543934", "station_id": "253", "station_lon": "-73.99453948"}, {"station_name": "Market St & Cherry St", "station_lat": "40.71076228", "station_id": "408", "station_lon": "-73.99400398"}, {"station_name": "E 33 St & 5 Ave", "station_lat": "40.74765947", "station_id": "526", "station_lon": "-73.98490707"}, {"station_name": "Mercer St & Spring St", "station_lat": "40.72362738", "station_id": "303", "station_lon": "-73.99949601"}, {"station_name": "W 22 St & 8 Ave", "station_lat": "40.74475148", "station_id": "453", "station_lon": "-73.99915362"}, {"station_name": "W 20 St & 7 Ave", "station_lat": "40.74238787", "station_id": "334", "station_lon": "-73.99726235"}, {"station_name": "St James Pl & Oliver St", "station_lat": "40.71307916", "station_id": "308", "station_lon": "-73.99851193"}, {"station_name": "W 29 St & 9 Ave", "station_lat": "40.7500727", "station_id": "512", "station_lon": "-73.99839279"}, {"station_name": "W 21 St & 6 Ave", "station_lat": "40.74173969", "station_id": "435", "station_lon": "-73.99415556"}, {"station_name": "E 19 St & 3 Ave", "station_lat": "40.73624527", "station_id": "325", "station_lon": "-73.98473765"}, {"station_name": "Clinton St & Joralemon St", "station_lat": "40.69239502", "station_id": "143", "station_lon": "-73.99337909"}, {"station_name": "W 39 St & 9 Ave", "station_lat": "40.75645824", "station_id": "488", "station_lon": "-73.99372222"}, {"station_name": "W 53 St & 10 Ave", "station_lat": "40.76669671", "station_id": "480", "station_lon": "-73.99061728"}, {"station_name": "E 51 St & Lexington Ave", "station_lat": "40.75714758", "station_id": "522", "station_lon": "-73.97207836"}, {"station_name": "W 20 St & 8 Ave", "station_lat": "40.74345335", "station_id": "470", "station_lon": "-74.00004031"}, {"station_name": "Broadway & W 32 St", "station_lat": "40.74854862", "station_id": "498", "station_lon": "-73.98808416"}, {"station_name": "Broadway & W 53 St", "station_lat": "40.76344058", "station_id": "469", "station_lon": "-73.98268129"}, {"station_name": "W 17 St & 8 Ave", "station_lat": "40.74177603", "station_id": "116", "station_lon": "-74.00149746"}, {"station_name": "Harrison St & Hudson St", "station_lat": "40.71870987", "station_id": "249", "station_lon": "-74.0090009"}, {"station_name": "W 44 St & 5 Ave", "station_lat": "40.75500254", "station_id": "484", "station_lon": "-73.98014437"}, {"station_name": "Cleveland Pl & Spring St", "station_lat": "40.7218158", "station_id": "151", "station_lon": "-73.99720307"}, {"station_name": "Broadway & W 55 St", "station_lat": "40.7652654", "station_id": "468", "station_lon": "-73.98192338"}, {"station_name": "DeKalb Ave & Skillman St", "station_lat": "40.6906495", "station_id": "409", "station_lon": "-73.95643107"}, {"station_name": "Broadway & W 37 St", "station_lat": "40.75172632", "station_id": "362", "station_lon": "-73.98753523"}, {"station_name": "Hanover Pl & Livingston St", "station_lat": "40.68864636", "station_id": "431", "station_lon": "-73.98263429"}, {"station_name": "Great Jones St", "station_lat": "40.72743423", "station_id": "229", "station_lon": "-73.99379025"}, {"station_name": "Washington Pl & 6 Ave", "station_lat": "40.73224119", "station_id": "369", "station_lon": "-74.00026394"}, {"station_name": "E 11 St & Broadway", "station_lat": "40.73261787", "station_id": "357", "station_lon": "-73.99158043"}, {"station_name": "Clark St & Henry St", "station_lat": "40.69760127", "station_id": "391", "station_lon": "-73.99344559"}, {"station_name": "8 Ave & W 52 St", "station_lat": "40.76370739", "station_id": "447", "station_lon": "-73.9851615"}, {"station_name": "W 43 St & 6 Ave", "station_lat": "40.75527307", "station_id": "524", "station_lon": "-73.98316936"}, {"station_name": "Monroe St & Bedford Ave", "station_lat": "40.6851443", "station_id": "344", "station_lon": "-73.95380904"}, {"station_name": "Little West St & 1 Pl", "station_lat": "40.70569254", "station_id": "2008", "station_lon": "-74.01677685"}, {"station_name": "E 43 St & 2 Ave", "station_lat": "40.75022392", "station_id": "2017", "station_lon": "-73.97121414"}, {"station_name": "9 Ave & W 14 St", "station_lat": "40.7405826", "station_id": "404", "station_lon": "-74.00550867"}, {"station_name": "E 12 St & 3 Ave", "station_lat": "40.73223272", "station_id": "483", "station_lon": "-73.98889957"}, {"station_name": "Fulton St & Waverly Ave", "station_lat": "40.68317813", "station_id": "384", "station_lon": "-73.9659641"}, {"station_name": "6 Ave & W 33 St", "station_lat": "40.74901271", "station_id": "505", "station_lon": "-73.98848395"}, {"station_name": "Myrtle Ave & St Edwards St", "station_lat": "40.69327018", "station_id": "245", "station_lon": "-73.97703874"}, {"station_name": "9 Ave & W 16 St", "station_lat": "40.74206539", "station_id": "463", "station_lon": "-74.00443172"}, {"station_name": "Barclay St & Church St", "station_lat": "40.71291224", "station_id": "417", "station_lon": "-74.01020234"}, {"station_name": "Broadway & W 24 St", "station_lat": "40.7423543", "station_id": "444", "station_lon": "-73.98915076"}, {"station_name": "Fulton St & Rockwell Pl", "station_lat": "40.687979", "station_id": "243", "station_lon": "-73.978474"}, {"station_name": "E 53 St & Madison Ave", "station_lat": "40.7597108", "station_id": "456", "station_lon": "-73.97402311"}, {"station_name": "Concord St & Bridge St", "station_lat": "40.69766564", "station_id": "278", "station_lon": "-73.98476437"}, {"station_name": "Columbia Heights & Cranberry St", "station_lat": "40.70037867", "station_id": "216", "station_lon": "-73.99548059"}, {"station_name": "Franklin Ave & Myrtle Ave", "station_lat": "40.694528", "station_id": "372", "station_lon": "-73.958089"}, {"station_name": "W 16 St & The High Line", "station_lat": "40.74334935", "station_id": "212", "station_lon": "-74.00681753"}, {"station_name": "W 13 St & 6 Ave", "station_lat": "40.73649403", "station_id": "345", "station_lon": "-73.99704374"}, {"station_name": "Willoughby Ave & Hall St", "station_lat": "40.69196035", "station_id": "244", "station_lon": "-73.96536851"}, {"station_name": "Shevchenko Pl & E 6 St", "station_lat": "40.728145", "station_id": "300", "station_lon": "-73.990214"}, {"station_name": "E 20 St & FDR Drive", "station_lat": "40.73314259", "station_id": "487", "station_lon": "-73.97573881"}, {"station_name": "University Pl & E 14 St", "station_lat": "40.73492695", "station_id": "382", "station_lon": "-73.99200509"}, {"station_name": "Park Pl & Church St", "station_lat": "40.71336124", "station_id": "319", "station_lon": "-74.00937622"}, {"station_name": "Hudson St & Reade St", "station_lat": "40.71625008", "station_id": "146", "station_lon": "-74.0091059"}, {"station_name": "E 47 St & 2 Ave", "station_lat": "40.75323098", "station_id": "164", "station_lon": "-73.97032517"}, {"station_name": "E 3 St & 1 Ave", "station_lat": "40.72467721", "station_id": "428", "station_lon": "-73.98783413"}, {"station_name": "Park Ave & St Edwards St", "station_lat": "40.69608941", "station_id": "119", "station_lon": "-73.97803415"}, {"station_name": "Pearl St & Anchorage Pl", "station_lat": "40.70281858", "station_id": "414", "station_lon": "-73.98765762"}, {"station_name": "W 18 St & 6 Ave", "station_lat": "40.73971301", "station_id": "168", "station_lon": "-73.99456405"}, {"station_name": "E 39 St & 3 Ave", "station_lat": "40.7489006", "station_id": "167", "station_lon": "-73.97604882"}, {"station_name": "Canal St & Rutgers St", "station_lat": "40.71427487", "station_id": "307", "station_lon": "-73.98990025"}, {"station_name": "Lispenard St & Broadway", "station_lat": "40.71939226", "station_id": "257", "station_lon": "-74.00247214"}, {"station_name": "Lafayette St & Jersey St", "station_lat": "40.72456089", "station_id": "250", "station_lon": "-73.99565293"}, {"station_name": "Railroad Ave & Kay Ave", "station_lat": "40.70531194", "station_id": "2005", "station_lon": "-73.97100056"}, {"station_name": "E 47 St & 1 Ave", "station_lat": "40.75206862", "station_id": "516", "station_lon": "-73.96784384"}, {"station_name": "W 34 St & 11 Ave", "station_lat": "40.75594159", "station_id": "525", "station_lon": "-74.0021163"}, {"station_name": "St Marks Pl & 2 Ave", "station_lat": "40.7284186", "station_id": "236", "station_lon": "-73.98713956"}, {"station_name": "Washington Park", "station_lat": "40.69178232", "station_id": "262", "station_lon": "-73.97372989"}, {"station_name": "W 47 St & 10 Ave", "station_lat": "40.76269882", "station_id": "495", "station_lon": "-73.99301222"}, {"station_name": "Lexington Ave & Classon Ave", "station_lat": "40.68676793", "station_id": "120", "station_lon": "-73.95928168"}, {"station_name": "Clinton St & Grand St", "station_lat": "40.71559509", "station_id": "350", "station_lon": "-73.9870295"}, {"station_name": "Fulton St & William St", "station_lat": "40.70955958", "station_id": "316", "station_lon": "-74.00653609"}, {"station_name": "6 Ave & Broome St", "station_lat": "40.724399", "station_id": "2004", "station_lon": "-74.004704"}, {"station_name": "Mercer St & Bleecker St", "station_lat": "40.72679454", "station_id": "375", "station_lon": "-73.99695094"}, {"station_name": "Macon St & Nostrand Ave", "station_lat": "40.6809833854", "station_id": "437", "station_lon": "-73.9500479759"}, {"station_name": "Cadman Plaza E & Tillary St", "station_lat": "40.69597683", "station_id": "232", "station_lon": "-73.99014892"}, {"station_name": "Liberty St & Broadway", "station_lat": "40.70905623", "station_id": "195", "station_lon": "-74.01043382"}, {"station_name": "Bialystoker Pl & Delancey St", "station_lat": "40.71622644", "station_id": "356", "station_lon": "-73.98261206"}, {"station_name": "Lafayette St & E 8 St", "station_lat": "40.73028666", "station_id": "293", "station_lon": "-73.9907647"}, {"station_name": "1 Ave & E 18 St", "station_lat": "40.73416059", "station_id": "2003", "station_lon": "-73.98024289"}, {"station_name": "Hicks St & Montague St", "station_lat": "40.69512845", "station_id": "406", "station_lon": "-73.99595065"}, {"station_name": "Lafayette Ave & Fort Greene Pl", "station_lat": "40.68691865", "station_id": "274", "station_lon": "-73.976682"}, {"station_name": "Sullivan St & Washington Sq", "station_lat": "40.73047747", "station_id": "336", "station_lon": "-73.99906065"}, {"station_name": "Pershing Square S", "station_lat": "40.75149263", "station_id": "517", "station_lon": "-73.97798848"}, {"station_name": "Flushing Ave & Carlton Ave", "station_lat": "40.69788349", "station_id": "242", "station_lon": "-73.97350332"}, {"station_name": "Spruce St & Nassau St", "station_lat": "40.71146364", "station_id": "224", "station_lon": "-74.00552427"}, {"station_name": "W 11 St & 6 Ave", "station_lat": "40.73532427", "station_id": "254", "station_lon": "-73.99800419"}, {"station_name": "E 31 St & 3 Ave", "station_lat": "40.74394314", "station_id": "476", "station_lon": "-73.97966069"}, {"station_name": "St James Pl & Pearl St", "station_lat": "40.71117416", "station_id": "82", "station_lon": "-74.00016545"}, {"station_name": "Lafayette Ave & St James Pl", "station_lat": "40.68851534", "station_id": "399", "station_lon": "-73.9647628"}, {"station_name": "Joralemon St & Adams St", "station_lat": "40.69246277", "station_id": "233", "station_lon": "-73.98963911"}, {"station_name": "E 6 St & Avenue D", "station_lat": "40.72228087", "station_id": "411", "station_lon": "-73.97668709"}, {"station_name": "Watts St & Greenwich St", "station_lat": "40.72405549", "station_id": "328", "station_lon": "-74.00965965"}, {"station_name": "W 56 St & 6 Ave", "station_lat": "40.76340613", "station_id": "352", "station_lon": "-73.97722479"}, {"station_name": "W Broadway & Spring St", "station_lat": "40.72490985", "station_id": "348", "station_lon": "-74.00154702"}, {"station_name": "Gallatin Pl & Livingston St", "station_lat": "40.69028437", "station_id": "218", "station_lon": "-73.98707105"}, {"station_name": "E 56 St & 3 Ave", "station_lat": "40.75934501", "station_id": "464", "station_lon": "-73.96759673"}, {"station_name": "Kent Ave & S 11 St", "station_lat": "40.70827295", "station_id": "282", "station_lon": "-73.96834101"}, {"station_name": "Lafayette Ave & Classon Ave", "station_lat": "40.68900443", "station_id": "364", "station_lon": "-73.96023854"}, {"station_name": "E 23 St & 1 Ave", "station_lat": "40.736502", "station_id": "545", "station_lon": "-73.97809472"}, {"station_name": "Fulton St & Grand Ave", "station_lat": "40.68223166", "station_id": "365", "station_lon": "-73.9614583"}, {"station_name": "York St & Jay St", "station_lat": "40.7014851", "station_id": "430", "station_lon": "-73.98656928"}, {"station_name": "DeKalb Ave & Hudson Ave", "station_lat": "40.689888", "station_id": "324", "station_lon": "-73.981013"}, {"station_name": "Pearl St & Hanover Square", "station_lat": "40.7047177", "station_id": "415", "station_lon": "-74.00926027"}, {"station_name": "W 46 St & 11 Ave", "station_lat": "40.76341379", "station_id": "508", "station_lon": "-73.99667444"}, {"station_name": "Greenwich Ave & Charles St", "station_lat": "40.735238", "station_id": "383", "station_lon": "-74.000271"}, {"station_name": "W 25 St & 6 Ave", "station_lat": "40.74395411", "station_id": "466", "station_lon": "-73.99144871"}]